{"type": "FeatureCollection", "features": [{"type": "Feature", "geometry": {"type": "Point", "coordinates": [105.8055649, 21.0029882]}, "properties": {"Address": "Hei Tower, s\u1ed1 1 Ng\u1ee5y Nh\u01b0 Kon Tum, Nh\u00e2n Ch\u00ednh", "name": "Beer Eating & Drinking"}}, {"type": "Feature", "geometry": {"type": "Point", "coordinates": [105.8114523, 21.0139586]}, "properties": {"Address": "4 V\u0169 Ng\u1ecdc Phan, L\u00e1ng H\u1ea1", "name": "Legend Beer"}}, {"type": "Feature", "geometry": {"type": "Point", "coordinates": [105.8174069, 21.0146009]}, "properties": {"Address": "T\u1ea7ng M T\u00f2a nh\u00e0 S\u00f4ng H\u1ed3ng Park View B, 165 Th\u00e1i H\u00e0, L\u00e1ng H\u1ea1", "name": "Sparta Beer Club"}}, {"type": "Feature", "geometry": {"type": "Point", "coordinates": [105.8315492, 21.0058881]}, "properties": {"Address": "Kim Li\u00ean", "name": "M\u00e9t Beer club"}}, {"type": "Feature", "geometry": {"type": "Point", "coordinates": [105.8209894, 21.0087735]}, "properties": {"Address": "66 298 T\u00f2a nh\u00e0 Kinh \u0110\u00f4, T\u00e2y S\u01a1n, Trung Li\u1ec7t", "name": "VITAMIN BEER"}}, {"type": "Feature", "geometry": {"type": "Point", "coordinates": [105.8034283, 20.9969842]}, "properties": {"Address": "Nguy\u1ec5n Huy T\u01b0\u1edfng, Thanh Xu\u00e2n Trung", "name": "R\u01b0\u1ee3u ngo\u1ea1i nh\u1eadp kh\u1ea9u gi\u00e1 r\u1ebb"}}, {"type": "Feature", "geometry": {"type": "Point", "coordinates": [105.8416444, 21.0249274]}, "properties": {"Address": "99 \u0110\u01b0\u1eddng L\u00ea Du\u1ea9n, V\u0103n Mi\u1ebfu", "name": "iBiero Craft Beer Station"}}, {"type": "Feature", "geometry": {"type": "Point", "coordinates": [105.8353064, 21.008351]}, "properties": {"Address": "kho cua hang ngoc son, 65, 09 Ph\u1ea1m Ng\u1ecdc Th\u1ea1ch", "name": "65 Ng\u00f5 Qu\u00e1n"}}, {"type": "Feature", "geometry": {"type": "Point", "coordinates": [105.8188889, 21.0225]}, "properties": {"Address": "2 L\u00e1ng H\u1ea1, Th\u00e0nh C\u00f4ng", "name": "New Sphinx Beer Bar"}}, {"type": "Feature", "geometry": {"type": "Point", "coordinates": [105.8223659, 20.9988267]}, "properties": {"Address": "103, \u0110\u01b0\u1eddng V\u01b0\u01a1ng Th\u1eeba V\u0169, Kh\u01b0\u01a1ng Trung", "name": "Viet Ha Draught Beer"}}, {"type": "Feature", "geometry": {"type": "Point", "coordinates": [105.8100505, 21.002225]}, "properties": {"Address": "28 Nh\u00e2n H\u00f2a, Thanh Xu\u00e2n Trung", "name": "Bia Ph\u1ee7i 28"}}, {"type": "Feature", "geometry": {"type": "Point", "coordinates": [105.809441, 21.01568]}, "properties": {"Address": "68 Nguy\u00ean H\u1ed3ng, L\u00e1ng H\u1ea1", "name": "X\u00edch Beer Club"}}, {"type": "Feature", "geometry": {"type": "Point", "coordinates": [105.8112745, 21.004798]}, "properties": {"Address": "142 Quan Nh\u00e2n, Nh\u00e2n Ch\u00ednh", "name": "Bia h\u01a1i Tu\u1ea5n Thu henninger"}}, {"type": "Feature", "geometry": {"type": "Point", "coordinates": [105.8148347, 21.008894]}, "properties": {"Address": "358 \u0110. L\u00e1ng, Nh\u00e2n Ch\u00ednh", "name": "City Beer Station"}}, {"type": "Feature", "geometry": {"type": "Point", "coordinates": [105.8294116, 21.0191071]}, "properties": {"Address": "1 P. \u00d4 Ch\u1ee3 D\u1eeba, Ch\u1ee3 D\u1eeba", "name": "TopU Beer Club & Lounge"}}, {"type": "Feature", "geometry": {"type": "Point", "coordinates": [105.818715, 21.0040496]}, "properties": {"Address": "90 \u0110. L\u00e1ng, Th\u1ecbnh Quang", "name": "T+Beer 90 L\u00e1ng"}}, {"type": "Feature", "geometry": {"type": "Point", "coordinates": [105.8265058, 21.0265201]}, "properties": {"Address": "62 V\u0169 Th\u1ea1nh, Ch\u1ee3 D\u1eeba", "name": "\u0110\u1ecf Beer Garden"}}, {"type": "Feature", "geometry": {"type": "Point", "coordinates": [105.8111083, 21.0186069]}, "properties": {"Address": "110 Hu\u1ef3nh Th\u00fac Kh\u00e1ng, L\u00e1ng H\u1ea1", "name": "Ng\u1ecdc H\u1eb1ng Beer Restaurant"}}, {"type": "Feature", "geometry": {"type": "Point", "coordinates": [105.8217766, 21.003896]}, "properties": {"Address": "319 T\u00e2y S\u01a1n, Ng\u00e3 T\u01b0 S\u1edf", "name": "Nh\u00e0 h\u00e0ng Li\u00ean H\u01b0\u01a1ng Casablanca"}}, {"type": "Feature", "geometry": {"type": "Point", "coordinates": [105.8133522, 21.0272087]}, "properties": {"Address": "75 Nguy\u1ec5n C\u00f4ng Hoan, Ng\u1ecdc Kh\u00e1nh", "name": "Zamba Beer & BBQ"}}, {"type": "Feature", "geometry": {"type": "Point", "coordinates": [105.8120038, 21.024763]}, "properties": {"Address": "928 \u0110\u01b0\u1eddng La Th\u00e0nh, Gi\u1ea3ng V\u00f5", "name": "Ngoc Tuan Beer-Wine Agent"}}, {"type": "Feature", "geometry": {"type": "Point", "coordinates": [105.8400742, 21.0290859]}, "properties": {"Address": "67 Nguy\u1ec5n Th\u00e1i H\u1ecdc, V\u0103n Mi\u1ebfu", "name": "Roxa Beer"}}, {"type": "Feature", "geometry": {"type": "Point", "coordinates": [105.8062694, 21.0161913]}, "properties": {"Address": "S\u1ed0 7 Ng\u00f5 107 \u0110\u01b0\u01a1\u0300ng Nguy\u00ea\u0303n Chi\u0301 Thanh, L\u00e1ng H\u1ea1", "name": "QU\u00c1N M\u1ed8C 107 NGUY\u1ec4N CH\u00cd THANH"}}, {"type": "Feature", "geometry": {"type": "Point", "coordinates": [105.8421839, 21.0275554]}, "properties": {"Address": "124 Hai B\u00e0 Tr\u01b0ng, C\u1eeda Nam", "name": "Bia T\u01b0\u01a1i Ho\u00e0ng \u0110\u1ea1t"}}, {"type": "Feature", "geometry": {"type": "Point", "coordinates": [105.8224494, 21.0060408]}, "properties": {"Address": "6 Th\u00e1i Th\u1ecbnh, Ng\u00e3 T\u01b0 S\u1edf", "name": "Ba Dat Beer Restaurant"}}, {"type": "Feature", "geometry": {"type": "Point", "coordinates": [105.8288439, 20.9983575]}, "properties": {"Address": "86 L\u00ea Tr\u1ecdng T\u1ea5n, Kh\u01b0\u01a1ng Mai", "name": "Bia kh\u00f4ng qu\u00e2b"}}, {"type": "Feature", "geometry": {"type": "Point", "coordinates": [105.8094291, 21.0156435]}, "properties": {"Address": "66 Nguy\u00ean H\u1ed3ng, L\u00e1ng H\u1ea1", "name": "SBB - Special Belgian Beer"}}, {"type": "Feature", "geometry": {"type": "Point", "coordinates": [105.80123, 21.0059637]}, "properties": {"Address": "2a Nguy\u1ec5n Th\u1ecb Th\u1eadp, Trung Ho\u00e0", "name": "Euro Beer"}}, {"type": "Feature", "geometry": {"type": "Point", "coordinates": [105.8054554, 21.0031261]}, "properties": {"Address": "T\u1ea7ng 1, To\u00e0 nh\u00e0 HEI TOWER- Ng\u00f5 9, Ho\u00e0ng \u0110\u1ea1o Th\u00fay, Nh\u00e2n Ch\u00ednh", "name": "Nh\u00e0 h\u00e0ng 3C Beer"}}, {"type": "Feature", "geometry": {"type": "Point", "coordinates": [105.8204544, 21.002698]}, "properties": {"Address": "397 Tr\u01b0\u1eddng Chinh, Qu\u1eadn Thanh Xu\u00e2n, H\u00e0 N\u1ed9i, Ng\u00e3 T\u01b0 S\u1edf", "name": "GoldMalt Beer Restaurant"}}, {"type": "Feature", "geometry": {"type": "Point", "coordinates": [105.8289385, 20.9977935]}, "properties": {"Address": "88 L\u00ea Tr\u1ecdng T\u1ea5n, Kh\u01b0\u01a1ng Mai", "name": "Nh\u00e0 H\u00e0ng Beer 39"}}, {"type": "Feature", "geometry": {"type": "Point", "coordinates": [105.8042357, 21.0140927]}, "properties": {"Address": "5 Tr\u1ea7n Duy H\u01b0ng, Trung Ho\u00e0", "name": "9th Hour Beer Restaurant"}}, {"type": "Feature", "geometry": {"type": "Point", "coordinates": [105.823778, 21.0144518]}, "properties": {"Address": "75 Tr\u1ea7n Quang Di\u1ec7u, Ch\u1ee3 D\u1eeba", "name": "Bia Hoi Ha Noi - Beer Vu"}}, {"type": "Feature", "geometry": {"type": "Point", "coordinates": [105.825066, 21.021603]}, "properties": {"Address": "270 \u0110\u01b0\u1eddng La Th\u00e0nh, Ch\u1ee3 D\u1eeba", "name": "Nh\u00e0 H\u00e0ng Bia Heineken 270"}}, {"type": "Feature", "geometry": {"type": "Point", "coordinates": [105.8280734, 20.9980451]}, "properties": {"Address": "86B L\u00ea Tr\u1ecdng T\u1ea5n, Kh\u01b0\u01a1ng Mai", "name": "H\u1ea3i X\u1ed3m Beer Restaurant"}}, {"type": "Feature", "geometry": {"type": "Point", "coordinates": [105.8141736, 21.021055]}, "properties": {"Address": "B1A Th\u00e0nh C\u00f4ng, Khu t\u1eadp th\u1ec3 B\u1eafc Th\u00e0nh C\u00f4ng", "name": "Heninger Beer Phuong Ngoc Thanh Cong Lake Side"}}]}